{"type":"FeatureCollection","features":[{"type":"Feature","properties":{"Name":"TEOPAN VIEJO"},"geometry":{"type":"Point","coordinates":[-97.71824,18.67724]}},{"type":"Feature","properties":{"Name":"LA CUMBRE"},"geometry":{"type":"Point","coordinates":[-97.8432,20.30876]}},{"type":"Feature","properties":{"Name":"AHUATLAN"},"geometry":{"type":"Point","coordinates":[-98.25692,18.57276]}},{"type":"Feature","properties":{"Name":"CALMECA"},"geometry":{"type":"Point","coordinates":[-98.634329,18.638542]}},{"type":"Feature","properties":{"Name":"LINDA VISTA"},"geometry":{"type":"Point","coordinates":[-97.34439,19.76759]}},{"type":"Feature","properties":{"Name":"CAMPO DEPORTIVO"},"geometry":{"type":"Point","coordinates":[-97.16506,18.4948]}},{"type":"Feature","properties":{"Name":"LOMA BONITA"},"geometry":{"type":"Point","coordinates":[-97.00425,18.22359]}},{"type":"Feature","properties":{"Name":"LOMA BONITA"},"geometry":{"type":"Point","coordinates":[-97.00425,18.22359]}},{"type":"Feature","properties":{"Name":"COL. CENTRO"},"geometry":{"type":"Point","coordinates":[-97.961117,20.274873]}},{"type":"Feature","properties":{"Name":"BARRIO DE XOCHITL"},"geometry":{"type":"Point","coordinates":[-98.29,19.08861]}},{"type":"Feature","properties":{"Name":"CRUZ VERDE"},"geometry":{"type":"Point","coordinates":[-97.732,19.12862]}},{"type":"Feature","properties":{"Name":"COL. EL RETIRO"},"geometry":{"type":"Point","coordinates":[-97.66562,20.54424]}},{"type":"Feature","properties":{"Name":"PIEDRAS NEGRAS"},"geometry":{"type":"Point","coordinates":[-97.76164,20.44123]}},{"type":"Feature","properties":{"Name":"NACTANCA"},"geometry":{"type":"Point","coordinates":[-98.212116,19.051201]}},{"type":"Feature","properties":{"Name":"CORONEL TITO HERNANDEZ"},"geometry":{"type":"Point","coordinates":[-97.73607,20.45642]}},{"type":"Feature","properties":{"Name":"CORONEL TITO HERNANDEZ"},"geometry":{"type":"Point","coordinates":[-97.73607,20.45642]}},{"type":"Feature","properties":{"Name":"AGUA LINDA"},"geometry":{"type":"Point","coordinates":[-97.86611,20.58611]}},{"type":"Feature","properties":{"Name":"HUAUCHINANGO"},"geometry":{"type":"Point","coordinates":[-98.062275,20.173941]}},{"type":"Feature","properties":{"Name":"LA REFORMA"},"geometry":{"type":"Point","coordinates":[-97.73863,20.45359]}},{"type":"Feature","properties":{"Name":"RANCHO QUETZOTLA"},"geometry":{"type":"Point","coordinates":[-98.66502,18.20163]}},{"type":"Feature","properties":{"Name":"NANTZINTLA"},"geometry":{"type":"Point","coordinates":[-98.67722,18.19299]}},{"type":"Feature","properties":{"Name":"TLANICHIAUTLA"},"geometry":{"type":"Point","coordinates":[-98.212116,19.051201]}},{"type":"Feature","properties":{"Name":"BARRIO SAN MIGUEL"},"geometry":{"type":"Point","coordinates":[-97.18766,18.5414]}},{"type":"Feature","properties":{"Name":"BARRIO DE XOCHITL"},"geometry":{"type":"Point","coordinates":[-98.29,19.08861]}},{"type":"Feature","properties":{"Name":"COL. LOMA BONITA"},"geometry":{"type":"Point","coordinates":[-97.00425,18.22359]}},{"type":"Feature","properties":{"Name":"RANCHO NUEVO"},"geometry":{"type":"Point","coordinates":[-97.82028,20.25861]}},{"type":"Feature","properties":{"Name":"SAN LUCAS MATLALA"},"geometry":{"type":"Point","coordinates":[-98.60361,18.69167]}},{"type":"Feature","properties":{"Name":"HUILULCO"},"geometry":{"type":"Point","coordinates":[-96.98341,18.25558]}},{"type":"Feature","properties":{"Name":"SAN PEDRO CONTLA"},"geometry":{"type":"Point","coordinates":[-98.5975,18.73278]}},{"type":"Feature","properties":{"Name":"SAN PEDRO CONTLA"},"geometry":{"type":"Point","coordinates":[-98.5975,18.73278]}},{"type":"Feature","properties":{"Name":"ACTEOPAN"},"geometry":{"type":"Point","coordinates":[-98.679801,18.77165]}},{"type":"Feature","properties":{"Name":"SAN MARCOS ACTEOPAN"},"geometry":{"type":"Point","coordinates":[-98.679801,18.77165]}},{"type":"Feature","properties":{"Name":"SANTA MARIA ATZITZINTLA"},"geometry":{"type":"Point","coordinates":[-98.70404,18.77739]}},{"type":"Feature","properties":{"Name":"SANTA CRUZ ORGANAL"},"geometry":{"type":"Point","coordinates":[-98.22951,18.44963]}},{"type":"Feature","properties":{"Name":"SANTA CRUZ ORGANAL"},"geometry":{"type":"Point","coordinates":[-98.22951,18.44963]}},{"type":"Feature","properties":{"Name":"SANTA CRUZ ORGANAL"},"geometry":{"type":"Point","coordinates":[-98.22951,18.44963]}},{"type":"Feature","properties":{"Name":"SANTA CRUZ ORGANAL"},"geometry":{"type":"Point","coordinates":[-98.22951,18.44963]}},{"type":"Feature","properties":{"Name":"SANTA CRUZ ORGANAL"},"geometry":{"type":"Point","coordinates":[-98.22951,18.44963]}},{"type":"Feature","properties":{"Name":"SANTA CRUZ ORGANAL"},"geometry":{"type":"Point","coordinates":[-98.22951,18.44963]}},{"type":"Feature","properties":{"Name":"SANTA CRUZ ORGANAL"},"geometry":{"type":"Point","coordinates":[-98.22951,18.44963]}},{"type":"Feature","properties":{"Name":"SANTA CRUZ ORGANAL"},"geometry":{"type":"Point","coordinates":[-98.22951,18.44963]}},{"type":"Feature","properties":{"Name":"SANTA CRUZ ORGANAL"},"geometry":{"type":"Point","coordinates":[-98.22951,18.44963]}},{"type":"Feature","properties":{"Name":"SANTA CRUZ ORGANAL"},"geometry":{"type":"Point","coordinates":[-98.22951,18.44963]}},{"type":"Feature","properties":{"Name":"PROVIDENCIA"},"geometry":{"type":"Point","coordinates":[-97.20389,19.30889]}},{"type":"Feature","properties":{"Name":"TEPEOJUMA "},"geometry":{"type":"Point","coordinates":[-98.443894,18.729659]}},{"type":"Feature","properties":{"Name":"TEYUCA "},"geometry":{"type":"Point","coordinates":[-98.212116,19.051201]}},{"type":"Feature","properties":{"Name":"ZARAGOZA"},"geometry":{"type":"Point","coordinates":[-97.55499,19.772203]}},{"type":"Feature","properties":{"Name":"LAS PETACAS"},"geometry":{"type":"Point","coordinates":[-98.212116,19.051201]}},{"type":"Feature","properties":{"Name":"EL RODEO"},"geometry":{"type":"Point","coordinates":[-97.7708,20.5931]}},{"type":"Feature","properties":{"Name":"LA MAGDALENA"},"geometry":{"type":"Point","coordinates":[-98.27534,20.25698]}},{"type":"Feature","properties":{"Name":"SANTA MARIA ZOYATLA"},"geometry":{"type":"Point","coordinates":[-98.410585,19.249593]}},{"type":"Feature","properties":{"Name":"ASTILLERO"},"geometry":{"type":"Point","coordinates":[-98.36835,18.71694]}},{"type":"Feature","properties":{"Name":"COLONIA INDEPENDENCIA"},"geometry":{"type":"Point","coordinates":[-98.45686,18.72594]}},{"type":"Feature","properties":{"Name":"EL TEMPEXQUITLE"},"geometry":{"type":"Point","coordinates":[-98.26889,18.94944]}},{"type":"Feature","properties":{"Name":"LA PAZ"},"geometry":{"type":"Point","coordinates":[-98.22283,19.052074]}},{"type":"Feature","properties":{"Name":"XANTOXTLA"},"geometry":{"type":"Point","coordinates":[-98.212116,19.051201]}},{"type":"Feature","properties":{"Name":"PORVENIR MIXQUIAPAN"},"geometry":{"type":"Point","coordinates":[-98.29639,18.09972]}},{"type":"Feature","properties":{"Name":"INDEPENDENCIA"},"geometry":{"type":"Point","coordinates":[-98.43132,19.16619]}},{"type":"Feature","properties":{"Name":"LA UNION "},"geometry":{"type":"Point","coordinates":[-98.52624,19.23009]}},{"type":"Feature","properties":{"Name":"SAN MIGUEL DE LOZANO"},"geometry":{"type":"Point","coordinates":[-98.34944,18.06111]}},{"type":"Feature","properties":{"Name":"EMILIANO ZAPATA"},"geometry":{"type":"Point","coordinates":[-97.77847,20.47001]}},{"type":"Feature","properties":{"Name":"TEZOQUIPAN"},"geometry":{"type":"Point","coordinates":[-98.32667,18.08361]}},{"type":"Feature","properties":{"Name":"TECOMATLAN"},"geometry":{"type":"Point","coordinates":[-98.324275,18.086222]}},{"type":"Feature","properties":{"Name":"EL ZACATAL"},"geometry":{"type":"Point","coordinates":[-97.98157,20.36981]}},{"type":"Feature","properties":{"Name":"TULANCINGUILLO"},"geometry":{"type":"Point","coordinates":[-98.212116,19.051201]}},{"type":"Feature","properties":{"Name":"LA ESPERANZA "},"geometry":{"type":"Point","coordinates":[-97.375155,18.858763]}},{"type":"Feature","properties":{"Name":"AGUA FRIA"},"geometry":{"type":"Point","coordinates":[-97.670319,20.50571]}},{"type":"Feature","properties":{"Name":"MARIA ANDREA"},"geometry":{"type":"Point","coordinates":[-97.73607,20.45642]}},{"type":"Feature","properties":{"Name":"AGUA LINDA"},"geometry":{"type":"Point","coordinates":[-97.86611,20.58611]}},{"type":"Feature","properties":{"Name":"TENAMPULCO"},"geometry":{"type":"Point","coordinates":[-97.403223,20.18913]}},{"type":"Feature","properties":{"Name":"OCOTZINGO"},"geometry":{"type":"Point","coordinates":[-97.68318,19.75629]}},{"type":"Feature","properties":{"Name":"JALCOMULCO"},"geometry":{"type":"Point","coordinates":[-97.68222,19.78361]}},{"type":"Feature","properties":{"Name":"COLONIA INDEPENDENCIA"},"geometry":{"type":"Point","coordinates":[-98.45686,18.72594]}},{"type":"Feature","properties":{"Name":"ZAPOTITLAN DE MENDEZ"},"geometry":{"type":"Point","coordinates":[-97.714188,20.003094]}},{"type":"Feature","properties":{"Name":"SAN VICENTE FERRER"},"geometry":{"type":"Point","coordinates":[-97.41283,18.499]}},{"type":"Feature","properties":{"Name":"TEXCALAPA"},"geometry":{"type":"Point","coordinates":[-98.212116,19.051201]}},{"type":"Feature","properties":{"Name":"CUAYUCA"},"geometry":{"type":"Point","coordinates":[-98.00412,19.68873]}},{"type":"Feature","properties":{"Name":"TLACHINOLA"},"geometry":{"type":"Point","coordinates":[-98.33285,18.33492]}},{"type":"Feature","properties":{"Name":"BUENA VISTA DE JUAREZ"},"geometry":{"type":"Point","coordinates":[-98.212116,19.051201]}},{"type":"Feature","properties":{"Name":"TENEXCALCO"},"geometry":{"type":"Point","coordinates":[-98.58333,18.46667]}},{"type":"Feature","properties":{"Name":"TECOLACIO"},"geometry":{"type":"Point","coordinates":[-98.212116,19.051201]}},{"type":"Feature","properties":{"Name":"CHIETLA"},"geometry":{"type":"Point","coordinates":[-98.574441,18.518195]}},{"type":"Feature","properties":{"Name":"ATENCINGO"},"geometry":{"type":"Point","coordinates":[-98.613072,18.507328]}},{"type":"Feature","properties":{"Name":"TZOMPAHUACAN"},"geometry":{"type":"Point","coordinates":[-98.70136,18.52993]}},{"type":"Feature","properties":{"Name":"SAN ANTONIO COAYUCA"},"geometry":{"type":"Point","coordinates":[-98.212116,19.051201]}},{"type":"Feature","properties":{"Name":"MORELOS MATLALA"},"geometry":{"type":"Point","coordinates":[-98.59639,18.695]}},{"type":"Feature","properties":{"Name":"SANTIAGO TETLA"},"geometry":{"type":"Point","coordinates":[-98.53667,18.75361]}},{"type":"Feature","properties":{"Name":"RANCHO NUEVO"},"geometry":{"type":"Point","coordinates":[-97.82028,20.25861]}},{"type":"Feature","properties":{"Name":"BARRIO GUADALUPE"},"geometry":{"type":"Point","coordinates":[-96.85389,18.40444]}},{"type":"Feature","properties":{"Name":"BARRIO SAN FELIPE"},"geometry":{"type":"Point","coordinates":[-98.50135,19.233753]}},{"type":"Feature","properties":{"Name":"BARRIO SAN MIGUEL"},"geometry":{"type":"Point","coordinates":[-97.18766,18.5414]}},{"type":"Feature","properties":{"Name":"BARRIO SANTA CRUZ"},"geometry":{"type":"Point","coordinates":[-98.212116,19.051201]}},{"type":"Feature","properties":{"Name":"BARRIO DE LA ASUNCION"},"geometry":{"type":"Point","coordinates":[-98.212116,19.051201]}},{"type":"Feature","properties":{"Name":"JALPAN"},"geometry":{"type":"Point","coordinates":[-97.94297,20.4793]}},{"type":"Feature","properties":{"Name":"MECAPALAPA"},"geometry":{"type":"Point","coordinates":[-97.855616,20.528654]}},{"type":"Feature","properties":{"Name":"SAN MARTIN"},"geometry":{"type":"Point","coordinates":[-98.432403,19.283085]}},{"type":"Feature","properties":{"Name":"JUAN FRANCISCO LUCAS"},"geometry":{"type":"Point","coordinates":[-97.71111,19.79]}},{"type":"Feature","properties":{"Name":"XILOXOCHITITAN"},"geometry":{"type":"Point","coordinates":[-97.63328,19.68788]}},{"type":"Feature","properties":{"Name":"EMILIO CARRANZA"},"geometry":{"type":"Point","coordinates":[-97.65278,19.71278]}},{"type":"Feature","properties":{"Name":"XOPANACO"},"geometry":{"type":"Point","coordinates":[-97.65333,19.72148]}},{"type":"Feature","properties":{"Name":"TLAMANCA"},"geometry":{"type":"Point","coordinates":[-97.6964,19.67457]}},{"type":"Feature","properties":{"Name":"AYOTOXCO DE GUERRERO"},"geometry":{"type":"Point","coordinates":[-97.413657,20.092921]}},{"type":"Feature","properties":{"Name":"COHETZALA"},"geometry":{"type":"Point","coordinates":[-98.790013,18.178117]}},{"type":"Feature","properties":{"Name":"SANTA MONICA"},"geometry":{"type":"Point","coordinates":[-98.80209,18.20883]}},{"type":"Feature","properties":{"Name":"EL PLATANAR"},"geometry":{"type":"Point","coordinates":[-98.72864,18.29301]}}]}